[
  {
    "_id": {
      "$oid": "584528f614cf7112780631a2"
    },
    "_t": "Msg_mission_count",
    "target_system": 0,
    "target_component": 0,
    "count": 84,
    "LoggingTime": "2016-12-05T08:44:38.908Z"
  },
  {
    "_t": "Msg_attitude",
    "time_boot_ms": 0,
    "roll": 0,
    "pitch": 0,
    "yaw": 3.141592653589793,
    "rollspeed": 0,
    "pitchspeed": 0,
    "yawspeed": 0,
    "LoggingTime": "2016-12-05T08:44:39.123Z"
  },
  {
    "_t": "Msg_gps_raw_int",
    "time_usec": 1480927479123,
    "fix_type": 5,
    "lat": 373223381,
    "lon": 1267982330,
    "alt": 21000,
    "eph": 9999,
    "epv": 65535,
    "vel": 0,
    "cog": 18000,
    "satellites_visible": 12,
    "LoggingTime": "2016-12-05T08:44:39.123Z"
  },
  {
    "_t": "Msg_mission_item_reached",
    "seq": 0,
    "LoggingTime": "2016-12-05T08:44:39.123Z"
  },
  {
    "_t": "Msg_mission_item_reached",
    "seq": 1,
    "LoggingTime": "2016-12-05T08:44:39.123Z"
  },
  {
    "_t": "Msg_mission_item_reached",
    "seq": 2,
    "LoggingTime": "2016-12-05T08:44:39.123Z"
  },
  {
    "_t": "Msg_sys_status",
    "onboard_control_sensors_present": 0,
    "onboard_control_sensors_enabled": 0,
    "onboard_control_sensors_health": 0,
    "load": 800,
    "voltage_battery": 24700,
    "current_battery": 0,
    "battery_remaining": 78,
    "drop_rate_comm": 0,
    "errors_comm": 0,
    "errors_count1": 0,
    "errors_count2": 0,
    "errors_count3": 0,
    "errors_count4": 0,
    "LoggingTime": "2016-12-05T08:44:39.123Z"
  },
  {
    "_t": "Msg_heartbeat",
    "type": 14,
    "autopilot": 3,
    "base_mode": 209,
    "custom_mode": 0,
    "system_status": 3,
    "mavlink_version": 3,
    "LoggingTime": "2016-12-05T08:44:39.123Z"
  },
  {
    "_t": "Msg_global_position_int",
    "time_boot_ms": 0,
    "lat": 373223381,
    "lon": 1267982330,
    "alt": 21000,
    "relative_alt": 21000,
    "vx": 0,
    "vy": 0,
    "vz": 0,
    "hdg": 18000,
    "LoggingTime": "2016-12-05T08:44:39.123Z"
  },
  {
    "_t": "Msg_mount_status",
    "target_system": 0,
    "target_component": 0,
    "pointing_a": 0,
    "pointing_b": 0,
    "pointing_c": 18000,
    "LoggingTime": "2016-12-05T08:44:39.123Z"
  },
  {
    "_t": "Msg_mount_status",
    "target_system": 0,
    "target_component": 0,
    "pointing_a": 0,
    "pointing_b": 0,
    "pointing_c": 17100,
    "LoggingTime": "2016-12-05T08:44:39.223Z"
  },
  {
    "_t": "Msg_global_position_int",
    "time_boot_ms": 100,
    "lat": 373223394,
    "lon": 1267982345,
    "alt": 20900,
    "relative_alt": 20900,
    "vx": 200,
    "vy": 0,
    "vz": 0,
    "hdg": 17100,
    "LoggingTime": "2016-12-05T08:44:39.223Z"
  },
  {
    "_t": "Msg_attitude",
    "time_boot_ms": 100,
    "roll": 0,
    "pitch": 0,
    "yaw": 2.9845130209103035,
    "rollspeed": 0,
    "pitchspeed": 0,
    "yawspeed": 0,
    "LoggingTime": "2016-12-05T08:44:39.223Z"
  },
  {
    "_t": "Msg_gps_raw_int",
    "time_usec": 1480927479223,
    "fix_type": 5,
    "lat": 373223394,
    "lon": 1267982345,
    "alt": 20900,
    "eph": 9999,
    "epv": 65535,
    "vel": 200,
    "cog": 17100,
    "satellites_visible": 12,
    "LoggingTime": "2016-12-05T08:44:39.223Z"
  },
  {
    "_t": "Msg_attitude",
    "time_boot_ms": 200,
    "roll": 0,
    "pitch": 0,
    "yaw": 2.827433388230814,
    "rollspeed": 0,
    "pitchspeed": 0,
    "yawspeed": 0,
    "LoggingTime": "2016-12-05T08:44:39.323Z"
  },
  {
    "_t": "Msg_global_position_int",
    "time_boot_ms": 200,
    "lat": 373223407,
    "lon": 1267982360,
    "alt": 20799,
    "relative_alt": 20799,
    "vx": 200,
    "vy": 0,
    "vz": 0,
    "hdg": 16200,
    "LoggingTime": "2016-12-05T08:44:39.323Z"
  },
  {
    "_t": "Msg_gps_raw_int",
    "time_usec": 1480927479323,
    "fix_type": 5,
    "lat": 373223407,
    "lon": 1267982360,
    "alt": 20799,
    "eph": 9999,
    "epv": 65535,
    "vel": 200,
    "cog": 16200,
    "satellites_visible": 12,
    "LoggingTime": "2016-12-05T08:44:39.323Z"
  },
  {
    "_t": "Msg_mount_status",
    "target_system": 0,
    "target_component": 0,
    "pointing_a": 0,
    "pointing_b": 0,
    "pointing_c": 16200,
    "LoggingTime": "2016-12-05T08:44:39.323Z"
  },
  {
    "_t": "Msg_gps_raw_int",
    "time_usec": 1480927479423,
    "fix_type": 5,
    "lat": 373223420,
    "lon": 1267982375,
    "alt": 20699,
    "eph": 9999,
    "epv": 65535,
    "vel": 200,
    "cog": 15300,
    "satellites_visible": 12,
    "LoggingTime": "2016-12-05T08:44:39.423Z"
  },
  {
    "_t": "Msg_mount_status",
    "target_system": 0,
    "target_component": 0,
    "pointing_a": 0,
    "pointing_b": 0,
    "pointing_c": 15300,
    "LoggingTime": "2016-12-05T08:44:39.423Z"
  },
  {
    "_t": "Msg_global_position_int",
    "time_boot_ms": 300,
    "lat": 373223420,
    "lon": 1267982375,
    "alt": 20699,
    "relative_alt": 20699,
    "vx": 200,
    "vy": 0,
    "vz": 0,
    "hdg": 15300,
    "LoggingTime": "2016-12-05T08:44:39.423Z"
  },
  {
    "_t": "Msg_attitude",
    "time_boot_ms": 300,
    "roll": 0,
    "pitch": 0,
    "yaw": 2.670353755551324,
    "rollspeed": 0,
    "pitchspeed": 0,
    "yawspeed": 0,
    "LoggingTime": "2016-12-05T08:44:39.423Z"
  },
  {
    "_t": "Msg_mount_status",
    "target_system": 0,
    "target_component": 0,
    "pointing_a": 0,
    "pointing_b": 0,
    "pointing_c": 14400,
    "LoggingTime": "2016-12-05T08:44:39.523Z"
  },
  {
    "_t": "Msg_global_position_int",
    "time_boot_ms": 400,
    "lat": 373223434,
    "lon": 1267982390,
    "alt": 20599,
    "relative_alt": 20599,
    "vx": 200,
    "vy": 0,
    "vz": 0,
    "hdg": 14400,
    "LoggingTime": "2016-12-05T08:44:39.523Z"
  },
  {
    "_t": "Msg_attitude",
    "time_boot_ms": 400,
    "roll": 0,
    "pitch": 0,
    "yaw": 2.5132741228718345,
    "rollspeed": 0,
    "pitchspeed": 0,
    "yawspeed": 0,
    "LoggingTime": "2016-12-05T08:44:39.523Z"
  },
  {
    "_t": "Msg_gps_raw_int",
    "time_usec": 1480927479523,
    "fix_type": 5,
    "lat": 373223434,
    "lon": 1267982390,
    "alt": 20599,
    "eph": 9999,
    "epv": 65535,
    "vel": 200,
    "cog": 14400,
    "satellites_visible": 12,
    "LoggingTime": "2016-12-05T08:44:39.523Z"
  },
  {
    "_t": "Msg_gps_raw_int",
    "time_usec": 1480927479623,
    "fix_type": 5,
    "lat": 373223447,
    "lon": 1267982406,
    "alt": 20499,
    "eph": 9999,
    "epv": 65535,
    "vel": 200,
    "cog": 13500,
    "satellites_visible": 12,
    "LoggingTime": "2016-12-05T08:44:39.623Z"
  },
  {
    "_t": "Msg_mount_status",
    "target_system": 0,
    "target_component": 0,
    "pointing_a": 0,
    "pointing_b": 0,
    "pointing_c": 13500,
    "LoggingTime": "2016-12-05T08:44:39.623Z"
  },
  {
    "_t": "Msg_global_position_int",
    "time_boot_ms": 500,
    "lat": 373223447,
    "lon": 1267982406,
    "alt": 20499,
    "relative_alt": 20499,
    "vx": 200,
    "vy": 0,
    "vz": 0,
    "hdg": 13500,
    "LoggingTime": "2016-12-05T08:44:39.623Z"
  },
  {
    "_t": "Msg_attitude",
    "time_boot_ms": 500,
    "roll": 0,
    "pitch": 0,
    "yaw": 2.356194490192345,
    "rollspeed": 0,
    "pitchspeed": 0,
    "yawspeed": 0,
    "LoggingTime": "2016-12-05T08:44:39.623Z"
  },
  {
    "_t": "Msg_mount_status",
    "target_system": 0,
    "target_component": 0,
    "pointing_a": 0,
    "pointing_b": 0,
    "pointing_c": 12600,
    "LoggingTime": "2016-12-05T08:44:39.723Z"
  },
  {
    "_t": "Msg_gps_raw_int",
    "time_usec": 1480927479723,
    "fix_type": 5,
    "lat": 373223460,
    "lon": 1267982421,
    "alt": 20399,
    "eph": 9999,
    "epv": 65535,
    "vel": 200,
    "cog": 12600,
    "satellites_visible": 12,
    "LoggingTime": "2016-12-05T08:44:39.723Z"
  },
  {
    "_t": "Msg_attitude",
    "time_boot_ms": 600,
    "roll": 0,
    "pitch": 0,
    "yaw": 2.199114857512855,
    "rollspeed": 0,
    "pitchspeed": 0,
    "yawspeed": 0,
    "LoggingTime": "2016-12-05T08:44:39.723Z"
  },
  {
    "_t": "Msg_global_position_int",
    "time_boot_ms": 600,
    "lat": 373223460,
    "lon": 1267982421,
    "alt": 20399,
    "relative_alt": 20399,
    "vx": 200,
    "vy": 0,
    "vz": 0,
    "hdg": 12600,
    "LoggingTime": "2016-12-05T08:44:39.723Z"
  },
  {
    "_t": "Msg_gps_raw_int",
    "time_usec": 1480927479823,
    "fix_type": 5,
    "lat": 373223474,
    "lon": 1267982436,
    "alt": 20299,
    "eph": 9999,
    "epv": 65535,
    "vel": 200,
    "cog": 11700,
    "satellites_visible": 12,
    "LoggingTime": "2016-12-05T08:44:39.823Z"
  },
  {
    "_t": "Msg_mount_status",
    "target_system": 0,
    "target_component": 0,
    "pointing_a": 0,
    "pointing_b": 0,
    "pointing_c": 11700,
    "LoggingTime": "2016-12-05T08:44:39.823Z"
  },
  {
    "_t": "Msg_global_position_int",
    "time_boot_ms": 700,
    "lat": 373223474,
    "lon": 1267982436,
    "alt": 20299,
    "relative_alt": 20299,
    "vx": 200,
    "vy": 0,
    "vz": 0,
    "hdg": 11700,
    "LoggingTime": "2016-12-05T08:44:39.823Z"
  },
  {
    "_t": "Msg_attitude",
    "time_boot_ms": 700,
    "roll": 0,
    "pitch": 0,
    "yaw": 2.0420352248333655,
    "rollspeed": 0,
    "pitchspeed": 0,
    "yawspeed": 0,
    "LoggingTime": "2016-12-05T08:44:39.823Z"
  },
  {
    "_t": "Msg_gps_raw_int",
    "time_usec": 1480927479923,
    "fix_type": 5,
    "lat": 373223487,
    "lon": 1267982451,
    "alt": 20199,
    "eph": 9999,
    "epv": 65535,
    "vel": 200,
    "cog": 10800,
    "satellites_visible": 12,
    "LoggingTime": "2016-12-05T08:44:39.923Z"
  },
  {
    "_t": "Msg_global_position_int",
    "time_boot_ms": 800,
    "lat": 373223487,
    "lon": 1267982451,
    "alt": 20199,
    "relative_alt": 20199,
    "vx": 200,
    "vy": 0,
    "vz": 0,
    "hdg": 10800,
    "LoggingTime": "2016-12-05T08:44:39.923Z"
  },
  {
    "_t": "Msg_attitude",
    "time_boot_ms": 800,
    "roll": 0,
    "pitch": 0,
    "yaw": 1.8849555921538759,
    "rollspeed": 0,
    "pitchspeed": 0,
    "yawspeed": 0,
    "LoggingTime": "2016-12-05T08:44:39.923Z"
  },
  {
    "_t": "Msg_mount_status",
    "target_system": 0,
    "target_component": 0,
    "pointing_a": 0,
    "pointing_b": 0,
    "pointing_c": 10800,
    "LoggingTime": "2016-12-05T08:44:39.923Z"
  },
  {
    "_t": "Msg_attitude",
    "time_boot_ms": 900,
    "roll": 0,
    "pitch": 0,
    "yaw": 1.7278759594743864,
    "rollspeed": 0,
    "pitchspeed": 0,
    "yawspeed": 0,
    "LoggingTime": "2016-12-05T08:44:40.023Z"
  },
  {
    "_t": "Msg_gps_raw_int",
    "time_usec": 1480927480023,
    "fix_type": 5,
    "lat": 373223500,
    "lon": 1267982466,
    "alt": 20099,
    "eph": 9999,
    "epv": 65535,
    "vel": 200,
    "cog": 9900,
    "satellites_visible": 12,
    "LoggingTime": "2016-12-05T08:44:40.023Z"
  },
  {
    "_t": "Msg_mount_status",
    "target_system": 0,
    "target_component": 0,
    "pointing_a": 0,
    "pointing_b": 0,
    "pointing_c": 9900,
    "LoggingTime": "2016-12-05T08:44:40.023Z"
  },
  {
    "_t": "Msg_global_position_int",
    "time_boot_ms": 900,
    "lat": 373223500,
    "lon": 1267982466,
    "alt": 20099,
    "relative_alt": 20099,
    "vx": 200,
    "vy": 0,
    "vz": 0,
    "hdg": 9900,
    "LoggingTime": "2016-12-05T08:44:40.023Z"
  },
  {
    "_t": "Msg_gps_raw_int",
    "time_usec": 1480927480123,
    "fix_type": 5,
    "lat": 373223514,
    "lon": 1267982482,
    "alt": 19999,
    "eph": 9999,
    "epv": 65535,
    "vel": 200,
    "cog": 9000,
    "satellites_visible": 12,
    "LoggingTime": "2016-12-05T08:44:40.123Z"
  },
  {
    "_t": "Msg_mount_status",
    "target_system": 0,
    "target_component": 0,
    "pointing_a": 0,
    "pointing_b": 0,
    "pointing_c": 9000,
    "LoggingTime": "2016-12-05T08:44:40.123Z"
  },
  {
    "_t": "Msg_global_position_int",
    "time_boot_ms": 1000,
    "lat": 373223514,
    "lon": 1267982482,
    "alt": 19999,
    "relative_alt": 19999,
    "vx": 200,
    "vy": 0,
    "vz": 0,
    "hdg": 9000,
    "LoggingTime": "2016-12-05T08:44:40.123Z"
  },
  {
    "_t": "Msg_heartbeat",
    "type": 14,
    "autopilot": 3,
    "base_mode": 209,
    "custom_mode": 0,
    "system_status": 3,
    "mavlink_version": 3,
    "LoggingTime": "2016-12-05T08:44:40.123Z"
  },
  {
    "_t": "Msg_attitude",
    "time_boot_ms": 1000,
    "roll": 0,
    "pitch": 0,
    "yaw": 1.5707963267948966,
    "rollspeed": 0,
    "pitchspeed": 0,
    "yawspeed": 0,
    "LoggingTime": "2016-12-05T08:44:40.123Z"
  },
  {
    "_t": "Msg_global_position_int",
    "time_boot_ms": 1100,
    "lat": 373223527,
    "lon": 1267982497,
    "alt": 19899,
    "relative_alt": 19899,
    "vx": 200,
    "vy": 0,
    "vz": 0,
    "hdg": 8100,
    "LoggingTime": "2016-12-05T08:44:40.223Z"
  },
  {
    "_t": "Msg_attitude",
    "time_boot_ms": 1100,
    "roll": 0,
    "pitch": 0,
    "yaw": 1.413716694115407,
    "rollspeed": 0,
    "pitchspeed": 0,
    "yawspeed": 0,
    "LoggingTime": "2016-12-05T08:44:40.223Z"
  },
  {
    "_t": "Msg_gps_raw_int",
    "time_usec": 1480927480223,
    "fix_type": 5,
    "lat": 373223527,
    "lon": 1267982497,
    "alt": 19899,
    "eph": 9999,
    "epv": 65535,
    "vel": 200,
    "cog": 8100,
    "satellites_visible": 12,
    "LoggingTime": "2016-12-05T08:44:40.223Z"
  },
  {
    "_t": "Msg_mount_status",
    "target_system": 0,
    "target_component": 0,
    "pointing_a": 0,
    "pointing_b": 0,
    "pointing_c": 8100,
    "LoggingTime": "2016-12-05T08:44:40.223Z"
  },
  {
    "_t": "Msg_gps_raw_int",
    "time_usec": 1480927480323,
    "fix_type": 5,
    "lat": 373223540,
    "lon": 1267982512,
    "alt": 19799,
    "eph": 9999,
    "epv": 65535,
    "vel": 200,
    "cog": 7200,
    "satellites_visible": 12,
    "LoggingTime": "2016-12-05T08:44:40.323Z"
  },
  {
    "_t": "Msg_mount_status",
    "target_system": 0,
    "target_component": 0,
    "pointing_a": 0,
    "pointing_b": 0,
    "pointing_c": 7200,
    "LoggingTime": "2016-12-05T08:44:40.323Z"
  },
  {
    "_t": "Msg_global_position_int",
    "time_boot_ms": 1200,
    "lat": 373223540,
    "lon": 1267982512,
    "alt": 19799,
    "relative_alt": 19799,
    "vx": 200,
    "vy": 0,
    "vz": 0,
    "hdg": 7200,
    "LoggingTime": "2016-12-05T08:44:40.323Z"
  },
  {
    "_t": "Msg_attitude",
    "time_boot_ms": 1200,
    "roll": 0,
    "pitch": 0,
    "yaw": 1.2566370614359172,
    "rollspeed": 0,
    "pitchspeed": 0,
    "yawspeed": 0,
    "LoggingTime": "2016-12-05T08:44:40.323Z"
  },
  {
    "_t": "Msg_gps_raw_int",
    "time_usec": 1480927480423,
    "fix_type": 5,
    "lat": 373223554,
    "lon": 1267982527,
    "alt": 19699,
    "eph": 9999,
    "epv": 65535,
    "vel": 200,
    "cog": 6300,
    "satellites_visible": 12,
    "LoggingTime": "2016-12-05T08:44:40.423Z"
  },
  {
    "_t": "Msg_mount_status",
    "target_system": 0,
    "target_component": 0,
    "pointing_a": 0,
    "pointing_b": 0,
    "pointing_c": 6300,
    "LoggingTime": "2016-12-05T08:44:40.423Z"
  },
  {
    "_t": "Msg_global_position_int",
    "time_boot_ms": 1300,
    "lat": 373223554,
    "lon": 1267982527,
    "alt": 19699,
    "relative_alt": 19699,
    "vx": 200,
    "vy": 0,
    "vz": 0,
    "hdg": 6300,
    "LoggingTime": "2016-12-05T08:44:40.423Z"
  },
  {
    "_t": "Msg_attitude",
    "time_boot_ms": 1300,
    "roll": 0,
    "pitch": 0,
    "yaw": 1.0995574287564276,
    "rollspeed": 0,
    "pitchspeed": 0,
    "yawspeed": 0,
    "LoggingTime": "2016-12-05T08:44:40.423Z"
  },
  {
    "_t": "Msg_mount_status",
    "target_system": 0,
    "target_component": 0,
    "pointing_a": 0,
    "pointing_b": 0,
    "pointing_c": 5400,
    "LoggingTime": "2016-12-05T08:44:40.523Z"
  },
  {
    "_t": "Msg_attitude",
    "time_boot_ms": 1400,
    "roll": 0,
    "pitch": 0,
    "yaw": 0.9424777960769379,
    "rollspeed": 0,
    "pitchspeed": 0,
    "yawspeed": 0,
    "LoggingTime": "2016-12-05T08:44:40.523Z"
  },
  {
    "_t": "Msg_gps_raw_int",
    "time_usec": 1480927480523,
    "fix_type": 5,
    "lat": 373223567,
    "lon": 1267982542,
    "alt": 19599,
    "eph": 9999,
    "epv": 65535,
    "vel": 200,
    "cog": 5400,
    "satellites_visible": 12,
    "LoggingTime": "2016-12-05T08:44:40.523Z"
  },
  {
    "_t": "Msg_global_position_int",
    "time_boot_ms": 1400,
    "lat": 373223567,
    "lon": 1267982542,
    "alt": 19599,
    "relative_alt": 19599,
    "vx": 200,
    "vy": 0,
    "vz": 0,
    "hdg": 5400,
    "LoggingTime": "2016-12-05T08:44:40.523Z"
  },
  {
    "_t": "Msg_attitude",
    "time_boot_ms": 1500,
    "roll": 0,
    "pitch": 0,
    "yaw": 0.7853981633974483,
    "rollspeed": 0,
    "pitchspeed": 0,
    "yawspeed": 0,
    "LoggingTime": "2016-12-05T08:44:40.623Z"
  },
  {
    "_t": "Msg_global_position_int",
    "time_boot_ms": 1500,
    "lat": 373223580,
    "lon": 1267982558,
    "alt": 19499,
    "relative_alt": 19499,
    "vx": 200,
    "vy": 0,
    "vz": 0,
    "hdg": 4500,
    "LoggingTime": "2016-12-05T08:44:40.623Z"
  },
  {
    "_t": "Msg_mount_status",
    "target_system": 0,
    "target_component": 0,
    "pointing_a": 0,
    "pointing_b": 0,
    "pointing_c": 4500,
    "LoggingTime": "2016-12-05T08:44:40.623Z"
  },
  {
    "_t": "Msg_gps_raw_int",
    "time_usec": 1480927480623,
    "fix_type": 5,
    "lat": 373223580,
    "lon": 1267982558,
    "alt": 19499,
    "eph": 9999,
    "epv": 65535,
    "vel": 200,
    "cog": 4500,
    "satellites_visible": 12,
    "LoggingTime": "2016-12-05T08:44:40.623Z"
  },
  {
    "_t": "Msg_gps_raw_int",
    "time_usec": 1480927480723,
    "fix_type": 5,
    "lat": 373223593,
    "lon": 1267982573,
    "alt": 19399,
    "eph": 9999,
    "epv": 65535,
    "vel": 200,
    "cog": 3600,
    "satellites_visible": 12,
    "LoggingTime": "2016-12-05T08:44:40.723Z"
  },
  {
    "_t": "Msg_mount_status",
    "target_system": 0,
    "target_component": 0,
    "pointing_a": 0,
    "pointing_b": 0,
    "pointing_c": 3600,
    "LoggingTime": "2016-12-05T08:44:40.723Z"
  },
  {
    "_t": "Msg_global_position_int",
    "time_boot_ms": 1600,
    "lat": 373223593,
    "lon": 1267982573,
    "alt": 19399,
    "relative_alt": 19399,
    "vx": 200,
    "vy": 0,
    "vz": 0,
    "hdg": 3600,
    "LoggingTime": "2016-12-05T08:44:40.723Z"
  },
  {
    "_t": "Msg_attitude",
    "time_boot_ms": 1600,
    "roll": 0,
    "pitch": 0,
    "yaw": 0.6283185307179586,
    "rollspeed": 0,
    "pitchspeed": 0,
    "yawspeed": 0,
    "LoggingTime": "2016-12-05T08:44:40.723Z"
  },
  {
    "_t": "Msg_mount_status",
    "target_system": 0,
    "target_component": 0,
    "pointing_a": 0,
    "pointing_b": 0,
    "pointing_c": 4500,
    "LoggingTime": "2016-12-05T08:44:40.823Z"
  },
  {
    "_t": "Msg_attitude",
    "time_boot_ms": 1700,
    "roll": 0,
    "pitch": 0,
    "yaw": 0.7853981633974483,
    "rollspeed": 0,
    "pitchspeed": 0,
    "yawspeed": 0,
    "LoggingTime": "2016-12-05T08:44:40.823Z"
  },
  {
    "_t": "Msg_global_position_int",
    "time_boot_ms": 1700,
    "lat": 373223607,
    "lon": 1267982588,
    "alt": 19299,
    "relative_alt": 19299,
    "vx": 200,
    "vy": 0,
    "vz": 0,
    "hdg": 4500,
    "LoggingTime": "2016-12-05T08:44:40.823Z"
  },
  {
    "_t": "Msg_gps_raw_int",
    "time_usec": 1480927480823,
    "fix_type": 5,
    "lat": 373223607,
    "lon": 1267982588,
    "alt": 19299,
    "eph": 9999,
    "epv": 65535,
    "vel": 200,
    "cog": 4500,
    "satellites_visible": 12,
    "LoggingTime": "2016-12-05T08:44:40.823Z"
  },
  {
    "_t": "Msg_mount_status",
    "target_system": 0,
    "target_component": 0,
    "pointing_a": 0,
    "pointing_b": 0,
    "pointing_c": 3600,
    "LoggingTime": "2016-12-05T08:44:40.923Z"
  },
  {
    "_t": "Msg_gps_raw_int",
    "time_usec": 1480927480923,
    "fix_type": 5,
    "lat": 373223620,
    "lon": 1267982603,
    "alt": 19199,
    "eph": 9999,
    "epv": 65535,
    "vel": 200,
    "cog": 3600,
    "satellites_visible": 12,
    "LoggingTime": "2016-12-05T08:44:40.923Z"
  },
  {
    "_t": "Msg_attitude",
    "time_boot_ms": 1800,
    "roll": 0,
    "pitch": 0,
    "yaw": 0.6283185307179586,
    "rollspeed": 0,
    "pitchspeed": 0,
    "yawspeed": 0,
    "LoggingTime": "2016-12-05T08:44:40.923Z"
  },
  {
    "_t": "Msg_global_position_int",
    "time_boot_ms": 1800,
    "lat": 373223620,
    "lon": 1267982603,
    "alt": 19199,
    "relative_alt": 19199,
    "vx": 200,
    "vy": 0,
    "vz": 0,
    "hdg": 3600,
    "LoggingTime": "2016-12-05T08:44:40.923Z"
  },
  {
    "_t": "Msg_mount_status",
    "target_system": 0,
    "target_component": 0,
    "pointing_a": 0,
    "pointing_b": 0,
    "pointing_c": 4500,
    "LoggingTime": "2016-12-05T08:44:41.023Z"
  },
  {
    "_t": "Msg_attitude",
    "time_boot_ms": 1900,
    "roll": 0,
    "pitch": 0,
    "yaw": 0.7853981633974483,
    "rollspeed": 0,
    "pitchspeed": 0,
    "yawspeed": 0,
    "LoggingTime": "2016-12-05T08:44:41.023Z"
  },
  {
    "_t": "Msg_global_position_int",
    "time_boot_ms": 1900,
    "lat": 373223633,
    "lon": 1267982619,
    "alt": 19099,
    "relative_alt": 19099,
    "vx": 200,
    "vy": 0,
    "vz": 0,
    "hdg": 4500,
    "LoggingTime": "2016-12-05T08:44:41.023Z"
  },
  {
    "_t": "Msg_gps_raw_int",
    "time_usec": 1480927481023,
    "fix_type": 5,
    "lat": 373223633,
    "lon": 1267982619,
    "alt": 19099,
    "eph": 9999,
    "epv": 65535,
    "vel": 200,
    "cog": 4500,
    "satellites_visible": 12,
    "LoggingTime": "2016-12-05T08:44:41.023Z"
  },
  {
    "_t": "Msg_gps_raw_int",
    "time_usec": 1480927481123,
    "fix_type": 5,
    "lat": 373223647,
    "lon": 1267982634,
    "alt": 18999,
    "eph": 9999,
    "epv": 65535,
    "vel": 200,
    "cog": 3600,
    "satellites_visible": 12,
    "LoggingTime": "2016-12-05T08:44:41.123Z"
  },
  {
    "_t": "Msg_mount_status",
    "target_system": 0,
    "target_component": 0,
    "pointing_a": 0,
    "pointing_b": 0,
    "pointing_c": 3600,
    "LoggingTime": "2016-12-05T08:44:41.123Z"
  },
  {
    "_t": "Msg_global_position_int",
    "time_boot_ms": 2000,
    "lat": 373223647,
    "lon": 1267982634,
    "alt": 18999,
    "relative_alt": 18999,
    "vx": 200,
    "vy": 0,
    "vz": 0,
    "hdg": 3600,
    "LoggingTime": "2016-12-05T08:44:41.123Z"
  },
  {
    "_t": "Msg_attitude",
    "time_boot_ms": 2000,
    "roll": 0,
    "pitch": 0,
    "yaw": 0.6283185307179586,
    "rollspeed": 0,
    "pitchspeed": 0,
    "yawspeed": 0,
    "LoggingTime": "2016-12-05T08:44:41.123Z"
  },
  {
    "_t": "Msg_heartbeat",
    "type": 14,
    "autopilot": 3,
    "base_mode": 209,
    "custom_mode": 0,
    "system_status": 3,
    "mavlink_version": 3,
    "LoggingTime": "2016-12-05T08:44:41.123Z"
  },
  {
    "_t": "Msg_gps_raw_int",
    "time_usec": 1480927481223,
    "fix_type": 5,
    "lat": 373223660,
    "lon": 1267982649,
    "alt": 18899,
    "eph": 9999,
    "epv": 65535,
    "vel": 200,
    "cog": 4500,
    "satellites_visible": 12,
    "LoggingTime": "2016-12-05T08:44:41.223Z"
  },
  {
    "_t": "Msg_attitude",
    "time_boot_ms": 2100,
    "roll": 0,
    "pitch": 0,
    "yaw": 0.7853981633974483,
    "rollspeed": 0,
    "pitchspeed": 0,
    "yawspeed": 0,
    "LoggingTime": "2016-12-05T08:44:41.223Z"
  },
  {
    "_t": "Msg_global_position_int",
    "time_boot_ms": 2100,
    "lat": 373223660,
    "lon": 1267982649,
    "alt": 18899,
    "relative_alt": 18899,
    "vx": 200,
    "vy": 0,
    "vz": 0,
    "hdg": 4500,
    "LoggingTime": "2016-12-05T08:44:41.223Z"
  },
  {
    "_t": "Msg_mount_status",
    "target_system": 0,
    "target_component": 0,
    "pointing_a": 0,
    "pointing_b": 0,
    "pointing_c": 4500,
    "LoggingTime": "2016-12-05T08:44:41.223Z"
  },
  {
    "_t": "Msg_mount_status",
    "target_system": 0,
    "target_component": 0,
    "pointing_a": 0,
    "pointing_b": 0,
    "pointing_c": 3600,
    "LoggingTime": "2016-12-05T08:44:41.323Z"
  },
  {
    "_t": "Msg_gps_raw_int",
    "time_usec": 1480927481323,
    "fix_type": 5,
    "lat": 373223673,
    "lon": 1267982664,
    "alt": 18799,
    "eph": 9999,
    "epv": 65535,
    "vel": 200,
    "cog": 3600,
    "satellites_visible": 12,
    "LoggingTime": "2016-12-05T08:44:41.323Z"
  },
  {
    "_t": "Msg_attitude",
    "time_boot_ms": 2200,
    "roll": 0,
    "pitch": 0,
    "yaw": 0.6283185307179586,
    "rollspeed": 0,
    "pitchspeed": 0,
    "yawspeed": 0,
    "LoggingTime": "2016-12-05T08:44:41.323Z"
  },
  {
    "_t": "Msg_global_position_int",
    "time_boot_ms": 2200,
    "lat": 373223673,
    "lon": 1267982664,
    "alt": 18799,
    "relative_alt": 18799,
    "vx": 200,
    "vy": 0,
    "vz": 0,
    "hdg": 3600,
    "LoggingTime": "2016-12-05T08:44:41.323Z"
  },
  {
    "_t": "Msg_global_position_int",
    "time_boot_ms": 2300,
    "lat": 373223687,
    "lon": 1267982679,
    "alt": 18699,
    "relative_alt": 18699,
    "vx": 200,
    "vy": 0,
    "vz": 0,
    "hdg": 4500,
    "LoggingTime": "2016-12-05T08:44:41.423Z"
  },
  {
    "_t": "Msg_attitude",
    "time_boot_ms": 2300,
    "roll": 0,
    "pitch": 0,
    "yaw": 0.7853981633974483,
    "rollspeed": 0,
    "pitchspeed": 0,
    "yawspeed": 0,
    "LoggingTime": "2016-12-05T08:44:41.423Z"
  },
  {
    "_t": "Msg_mount_status",
    "target_system": 0,
    "target_component": 0,
    "pointing_a": 0,
    "pointing_b": 0,
    "pointing_c": 4500,
    "LoggingTime": "2016-12-05T08:44:41.423Z"
  },
  {
    "_t": "Msg_gps_raw_int",
    "time_usec": 1480927481423,
    "fix_type": 5,
    "lat": 373223687,
    "lon": 1267982679,
    "alt": 18699,
    "eph": 9999,
    "epv": 65535,
    "vel": 200,
    "cog": 4500,
    "satellites_visible": 12,
    "LoggingTime": "2016-12-05T08:44:41.423Z"
  },
  {
    "_t": "Msg_attitude",
    "time_boot_ms": 2400,
    "roll": 0,
    "pitch": 0,
    "yaw": 0.6283185307179586,
    "rollspeed": 0,
    "pitchspeed": 0,
    "yawspeed": 0,
    "LoggingTime": "2016-12-05T08:44:41.523Z"
  },
  {
    "_t": "Msg_global_position_int",
    "time_boot_ms": 2400,
    "lat": 373223700,
    "lon": 1267982695,
    "alt": 18599,
    "relative_alt": 18599,
    "vx": 200,
    "vy": 0,
    "vz": 0,
    "hdg": 3600,
    "LoggingTime": "2016-12-05T08:44:41.523Z"
  },
  {
    "_t": "Msg_mount_status",
    "target_system": 0,
    "target_component": 0,
    "pointing_a": 0,
    "pointing_b": 0,
    "pointing_c": 3600,
    "LoggingTime": "2016-12-05T08:44:41.523Z"
  },
  {
    "_t": "Msg_gps_raw_int",
    "time_usec": 1480927481523,
    "fix_type": 5,
    "lat": 373223700,
    "lon": 1267982695,
    "alt": 18599,
    "eph": 9999,
    "epv": 65535,
    "vel": 200,
    "cog": 3600,
    "satellites_visible": 12,
    "LoggingTime": "2016-12-05T08:44:41.523Z"
  },
  {
    "_t": "Msg_mount_status",
    "target_system": 0,
    "target_component": 0,
    "pointing_a": 0,
    "pointing_b": 0,
    "pointing_c": 4500,
    "LoggingTime": "2016-12-05T08:44:41.623Z"
  },
  {
    "_t": "Msg_attitude",
    "time_boot_ms": 2500,
    "roll": 0,
    "pitch": 0,
    "yaw": 0.7853981633974483,
    "rollspeed": 0,
    "pitchspeed": 0,
    "yawspeed": 0,
    "LoggingTime": "2016-12-05T08:44:41.623Z"
  },
  {
    "_t": "Msg_global_position_int",
    "time_boot_ms": 2500,
    "lat": 373223713,
    "lon": 1267982710,
    "alt": 18499,
    "relative_alt": 18499,
    "vx": 200,
    "vy": 0,
    "vz": 0,
    "hdg": 4500,
    "LoggingTime": "2016-12-05T08:44:41.623Z"
  },
  {
    "_t": "Msg_gps_raw_int",
    "time_usec": 1480927481623,
    "fix_type": 5,
    "lat": 373223713,
    "lon": 1267982710,
    "alt": 18499,
    "eph": 9999,
    "epv": 65535,
    "vel": 200,
    "cog": 4500,
    "satellites_visible": 12,
    "LoggingTime": "2016-12-05T08:44:41.623Z"
  },
  {
    "_t": "Msg_mount_status",
    "target_system": 0,
    "target_component": 0,
    "pointing_a": 0,
    "pointing_b": 0,
    "pointing_c": 3600,
    "LoggingTime": "2016-12-05T08:44:41.723Z"
  },
  {
    "_t": "Msg_gps_raw_int",
    "time_usec": 1480927481723,
    "fix_type": 5,
    "lat": 373223727,
    "lon": 1267982725,
    "alt": 18399,
    "eph": 9999,
    "epv": 65535,
    "vel": 200,
    "cog": 3600,
    "satellites_visible": 12,
    "LoggingTime": "2016-12-05T08:44:41.723Z"
  },
  {
    "_t": "Msg_attitude",
    "time_boot_ms": 2600,
    "roll": 0,
    "pitch": 0,
    "yaw": 0.6283185307179586,
    "rollspeed": 0,
    "pitchspeed": 0,
    "yawspeed": 0,
    "LoggingTime": "2016-12-05T08:44:41.723Z"
  },
  {
    "_t": "Msg_global_position_int",
    "time_boot_ms": 2600,
    "lat": 373223727,
    "lon": 1267982725,
    "alt": 18399,
    "relative_alt": 18399,
    "vx": 200,
    "vy": 0,
    "vz": 0,
    "hdg": 3600,
    "LoggingTime": "2016-12-05T08:44:41.723Z"
  },
  {
    "_t": "Msg_attitude",
    "time_boot_ms": 2700,
    "roll": 0,
    "pitch": 0,
    "yaw": 0.7853981633974483,
    "rollspeed": 0,
    "pitchspeed": 0,
    "yawspeed": 0,
    "LoggingTime": "2016-12-05T08:44:41.823Z"
  },
  {
    "_t": "Msg_mount_status",
    "target_system": 0,
    "target_component": 0,
    "pointing_a": 0,
    "pointing_b": 0,
    "pointing_c": 4500,
    "LoggingTime": "2016-12-05T08:44:41.823Z"
  },
  {
    "_t": "Msg_gps_raw_int",
    "time_usec": 1480927481823,
    "fix_type": 5,
    "lat": 373223740,
    "lon": 1267982740,
    "alt": 18299,
    "eph": 9999,
    "epv": 65535,
    "vel": 200,
    "cog": 4500,
    "satellites_visible": 12,
    "LoggingTime": "2016-12-05T08:44:41.823Z"
  },
  {
    "_t": "Msg_global_position_int",
    "time_boot_ms": 2700,
    "lat": 373223740,
    "lon": 1267982740,
    "alt": 18299,
    "relative_alt": 18299,
    "vx": 200,
    "vy": 0,
    "vz": 0,
    "hdg": 4500,
    "LoggingTime": "2016-12-05T08:44:41.823Z"
  },
  {
    "_t": "Msg_global_position_int",
    "time_boot_ms": 2800,
    "lat": 373223753,
    "lon": 1267982755,
    "alt": 18199,
    "relative_alt": 18199,
    "vx": 200,
    "vy": 0,
    "vz": 0,
    "hdg": 3600,
    "LoggingTime": "2016-12-05T08:44:41.923Z"
  },
  {
    "_t": "Msg_gps_raw_int",
    "time_usec": 1480927481923,
    "fix_type": 5,
    "lat": 373223753,
    "lon": 1267982755,
    "alt": 18199,
    "eph": 9999,
    "epv": 65535,
    "vel": 200,
    "cog": 3600,
    "satellites_visible": 12,
    "LoggingTime": "2016-12-05T08:44:41.923Z"
  },
  {
    "_t": "Msg_attitude",
    "time_boot_ms": 2800,
    "roll": 0,
    "pitch": 0,
    "yaw": 0.6283185307179586,
    "rollspeed": 0,
    "pitchspeed": 0,
    "yawspeed": 0,
    "LoggingTime": "2016-12-05T08:44:41.923Z"
  },
  {
    "_t": "Msg_mount_status",
    "target_system": 0,
    "target_component": 0,
    "pointing_a": 0,
    "pointing_b": 0,
    "pointing_c": 3600,
    "LoggingTime": "2016-12-05T08:44:41.923Z"
  },
  {
    "_t": "Msg_attitude",
    "time_boot_ms": 2900,
    "roll": 0,
    "pitch": 0,
    "yaw": 0.7853981633974483,
    "rollspeed": 0,
    "pitchspeed": 0,
    "yawspeed": 0,
    "LoggingTime": "2016-12-05T08:44:42.023Z"
  },
  {
    "_t": "Msg_gps_raw_int",
    "time_usec": 1480927482023,
    "fix_type": 5,
    "lat": 373223766,
    "lon": 1267982771,
    "alt": 18099,
    "eph": 9999,
    "epv": 65535,
    "vel": 200,
    "cog": 4500,
    "satellites_visible": 12,
    "LoggingTime": "2016-12-05T08:44:42.023Z"
  },
  {
    "_t": "Msg_mount_status",
    "target_system": 0,
    "target_component": 0,
    "pointing_a": 0,
    "pointing_b": 0,
    "pointing_c": 4500,
    "LoggingTime": "2016-12-05T08:44:42.023Z"
  },
  {
    "_t": "Msg_global_position_int",
    "time_boot_ms": 2900,
    "lat": 373223766,
    "lon": 1267982771,
    "alt": 18099,
    "relative_alt": 18099,
    "vx": 200,
    "vy": 0,
    "vz": 0,
    "hdg": 4500,
    "LoggingTime": "2016-12-05T08:44:42.023Z"
  },
  {
    "_t": "Msg_heartbeat",
    "type": 14,
    "autopilot": 3,
    "base_mode": 209,
    "custom_mode": 0,
    "system_status": 3,
    "mavlink_version": 3,
    "LoggingTime": "2016-12-05T08:44:42.123Z"
  },
  {
    "_t": "Msg_mount_status",
    "target_system": 0,
    "target_component": 0,
    "pointing_a": 0,
    "pointing_b": 0,
    "pointing_c": 3600,
    "LoggingTime": "2016-12-05T08:44:42.123Z"
  },
  {
    "_t": "Msg_gps_raw_int",
    "time_usec": 1480927482123,
    "fix_type": 5,
    "lat": 373223780,
    "lon": 1267982786,
    "alt": 17999,
    "eph": 9999,
    "epv": 65535,
    "vel": 200,
    "cog": 3600,
    "satellites_visible": 12,
    "LoggingTime": "2016-12-05T08:44:42.123Z"
  },
  {
    "_t": "Msg_attitude",
    "time_boot_ms": 3000,
    "roll": 0,
    "pitch": 0,
    "yaw": 0.6283185307179586,
    "rollspeed": 0,
    "pitchspeed": 0,
    "yawspeed": 0,
    "LoggingTime": "2016-12-05T08:44:42.123Z"
  },
  {
    "_t": "Msg_global_position_int",
    "time_boot_ms": 3000,
    "lat": 373223780,
    "lon": 1267982786,
    "alt": 17999,
    "relative_alt": 17999,
    "vx": 200,
    "vy": 0,
    "vz": 0,
    "hdg": 3600,
    "LoggingTime": "2016-12-05T08:44:42.123Z"
  },
  {
    "_t": "Msg_gps_raw_int",
    "time_usec": 1480927482223,
    "fix_type": 5,
    "lat": 373223793,
    "lon": 1267982801,
    "alt": 17899,
    "eph": 9999,
    "epv": 65535,
    "vel": 200,
    "cog": 4500,
    "satellites_visible": 12,
    "LoggingTime": "2016-12-05T08:44:42.223Z"
  },
  {
    "_t": "Msg_mount_status",
    "target_system": 0,
    "target_component": 0,
    "pointing_a": 0,
    "pointing_b": 0,
    "pointing_c": 4500,
    "LoggingTime": "2016-12-05T08:44:42.223Z"
  },
  {
    "_t": "Msg_global_position_int",
    "time_boot_ms": 3100,
    "lat": 373223793,
    "lon": 1267982801,
    "alt": 17899,
    "relative_alt": 17899,
    "vx": 200,
    "vy": 0,
    "vz": 0,
    "hdg": 4500,
    "LoggingTime": "2016-12-05T08:44:42.223Z"
  },
  {
    "_t": "Msg_attitude",
    "time_boot_ms": 3100,
    "roll": 0,
    "pitch": 0,
    "yaw": 0.7853981633974483,
    "rollspeed": 0,
    "pitchspeed": 0,
    "yawspeed": 0,
    "LoggingTime": "2016-12-05T08:44:42.223Z"
  },
  {
    "_t": "Msg_gps_raw_int",
    "time_usec": 1480927482323,
    "fix_type": 5,
    "lat": 373223806,
    "lon": 1267982816,
    "alt": 17799,
    "eph": 9999,
    "epv": 65535,
    "vel": 200,
    "cog": 3600,
    "satellites_visible": 12,
    "LoggingTime": "2016-12-05T08:44:42.323Z"
  },
  {
    "_t": "Msg_mount_status",
    "target_system": 0,
    "target_component": 0,
    "pointing_a": 0,
    "pointing_b": 0,
    "pointing_c": 3600,
    "LoggingTime": "2016-12-05T08:44:42.323Z"
  },
  {
    "_t": "Msg_global_position_int",
    "time_boot_ms": 3200,
    "lat": 373223806,
    "lon": 1267982816,
    "alt": 17799,
    "relative_alt": 17799,
    "vx": 200,
    "vy": 0,
    "vz": 0,
    "hdg": 3600,
    "LoggingTime": "2016-12-05T08:44:42.323Z"
  },
  {
    "_t": "Msg_attitude",
    "time_boot_ms": 3200,
    "roll": 0,
    "pitch": 0,
    "yaw": 0.6283185307179586,
    "rollspeed": 0,
    "pitchspeed": 0,
    "yawspeed": 0,
    "LoggingTime": "2016-12-05T08:44:42.323Z"
  },
  {
    "_t": "Msg_mount_status",
    "target_system": 0,
    "target_component": 0,
    "pointing_a": 0,
    "pointing_b": 0,
    "pointing_c": 4500,
    "LoggingTime": "2016-12-05T08:44:42.423Z"
  },
  {
    "_t": "Msg_gps_raw_int",
    "time_usec": 1480927482423,
    "fix_type": 5,
    "lat": 373223820,
    "lon": 1267982832,
    "alt": 17699,
    "eph": 9999,
    "epv": 65535,
    "vel": 200,
    "cog": 4500,
    "satellites_visible": 12,
    "LoggingTime": "2016-12-05T08:44:42.423Z"
  },
  {
    "_t": "Msg_attitude",
    "time_boot_ms": 3300,
    "roll": 0,
    "pitch": 0,
    "yaw": 0.7853981633974483,
    "rollspeed": 0,
    "pitchspeed": 0,
    "yawspeed": 0,
    "LoggingTime": "2016-12-05T08:44:42.423Z"
  },
  {
    "_t": "Msg_global_position_int",
    "time_boot_ms": 3300,
    "lat": 373223820,
    "lon": 1267982832,
    "alt": 17699,
    "relative_alt": 17699,
    "vx": 200,
    "vy": 0,
    "vz": 0,
    "hdg": 4500,
    "LoggingTime": "2016-12-05T08:44:42.423Z"
  },
  {
    "_t": "Msg_global_position_int",
    "time_boot_ms": 3400,
    "lat": 373223833,
    "lon": 1267982847,
    "alt": 17599,
    "relative_alt": 17599,
    "vx": 200,
    "vy": 0,
    "vz": 0,
    "hdg": 3600,
    "LoggingTime": "2016-12-05T08:44:42.523Z"
  },
  {
    "_t": "Msg_attitude",
    "time_boot_ms": 3400,
    "roll": 0,
    "pitch": 0,
    "yaw": 0.6283185307179586,
    "rollspeed": 0,
    "pitchspeed": 0,
    "yawspeed": 0,
    "LoggingTime": "2016-12-05T08:44:42.523Z"
  },
  {
    "_t": "Msg_mount_status",
    "target_system": 0,
    "target_component": 0,
    "pointing_a": 0,
    "pointing_b": 0,
    "pointing_c": 3600,
    "LoggingTime": "2016-12-05T08:44:42.523Z"
  },
  {
    "_t": "Msg_gps_raw_int",
    "time_usec": 1480927482523,
    "fix_type": 5,
    "lat": 373223833,
    "lon": 1267982847,
    "alt": 17599,
    "eph": 9999,
    "epv": 65535,
    "vel": 200,
    "cog": 3600,
    "satellites_visible": 12,
    "LoggingTime": "2016-12-05T08:44:42.523Z"
  },
  {
    "_t": "Msg_attitude",
    "time_boot_ms": 3500,
    "roll": 0,
    "pitch": 0,
    "yaw": 0.7853981633974483,
    "rollspeed": 0,
    "pitchspeed": 0,
    "yawspeed": 0,
    "LoggingTime": "2016-12-05T08:44:42.623Z"
  },
  {
    "_t": "Msg_global_position_int",
    "time_boot_ms": 3500,
    "lat": 373223846,
    "lon": 1267982862,
    "alt": 17499,
    "relative_alt": 17499,
    "vx": 200,
    "vy": 0,
    "vz": 0,
    "hdg": 4500,
    "LoggingTime": "2016-12-05T08:44:42.623Z"
  },
  {
    "_t": "Msg_mount_status",
    "target_system": 0,
    "target_component": 0,
    "pointing_a": 0,
    "pointing_b": 0,
    "pointing_c": 4500,
    "LoggingTime": "2016-12-05T08:44:42.623Z"
  },
  {
    "_t": "Msg_gps_raw_int",
    "time_usec": 1480927482623,
    "fix_type": 5,
    "lat": 373223846,
    "lon": 1267982862,
    "alt": 17499,
    "eph": 9999,
    "epv": 65535,
    "vel": 200,
    "cog": 4500,
    "satellites_visible": 12,
    "LoggingTime": "2016-12-05T08:44:42.623Z"
  },
  {
    "_t": "Msg_mount_status",
    "target_system": 0,
    "target_component": 0,
    "pointing_a": 0,
    "pointing_b": 0,
    "pointing_c": 3600,
    "LoggingTime": "2016-12-05T08:44:42.723Z"
  },
  {
    "_t": "Msg_attitude",
    "time_boot_ms": 3600,
    "roll": 0,
    "pitch": 0,
    "yaw": 0.6283185307179586,
    "rollspeed": 0,
    "pitchspeed": 0,
    "yawspeed": 0,
    "LoggingTime": "2016-12-05T08:44:42.723Z"
  },
  {
    "_t": "Msg_global_position_int",
    "time_boot_ms": 3600,
    "lat": 373223860,
    "lon": 1267982877,
    "alt": 17399,
    "relative_alt": 17399,
    "vx": 200,
    "vy": 0,
    "vz": 0,
    "hdg": 3600,
    "LoggingTime": "2016-12-05T08:44:42.723Z"
  },
  {
    "_t": "Msg_gps_raw_int",
    "time_usec": 1480927482723,
    "fix_type": 5,
    "lat": 373223860,
    "lon": 1267982877,
    "alt": 17399,
    "eph": 9999,
    "epv": 65535,
    "vel": 200,
    "cog": 3600,
    "satellites_visible": 12,
    "LoggingTime": "2016-12-05T08:44:42.723Z"
  },
  {
    "_t": "Msg_gps_raw_int",
    "time_usec": 1480927482823,
    "fix_type": 5,
    "lat": 373223873,
    "lon": 1267982892,
    "alt": 17299,
    "eph": 9999,
    "epv": 65535,
    "vel": 200,
    "cog": 4500,
    "satellites_visible": 12,
    "LoggingTime": "2016-12-05T08:44:42.823Z"
  },
  {
    "_t": "Msg_mount_status",
    "target_system": 0,
    "target_component": 0,
    "pointing_a": 0,
    "pointing_b": 0,
    "pointing_c": 4500,
    "LoggingTime": "2016-12-05T08:44:42.823Z"
  },
  {
    "_t": "Msg_global_position_int",
    "time_boot_ms": 3700,
    "lat": 373223873,
    "lon": 1267982892,
    "alt": 17299,
    "relative_alt": 17299,
    "vx": 200,
    "vy": 0,
    "vz": 0,
    "hdg": 4500,
    "LoggingTime": "2016-12-05T08:44:42.823Z"
  },
  {
    "_t": "Msg_attitude",
    "time_boot_ms": 3700,
    "roll": 0,
    "pitch": 0,
    "yaw": 0.7853981633974483,
    "rollspeed": 0,
    "pitchspeed": 0,
    "yawspeed": 0,
    "LoggingTime": "2016-12-05T08:44:42.823Z"
  },
  {
    "_t": "Msg_gps_raw_int",
    "time_usec": 1480927482923,
    "fix_type": 5,
    "lat": 373223886,
    "lon": 1267982908,
    "alt": 17199,
    "eph": 9999,
    "epv": 65535,
    "vel": 200,
    "cog": 3600,
    "satellites_visible": 12,
    "LoggingTime": "2016-12-05T08:44:42.923Z"
  },
  {
    "_t": "Msg_mount_status",
    "target_system": 0,
    "target_component": 0,
    "pointing_a": 0,
    "pointing_b": 0,
    "pointing_c": 3600,
    "LoggingTime": "2016-12-05T08:44:42.923Z"
  },
  {
    "_t": "Msg_global_position_int",
    "time_boot_ms": 3800,
    "lat": 373223886,
    "lon": 1267982908,
    "alt": 17199,
    "relative_alt": 17199,
    "vx": 200,
    "vy": 0,
    "vz": 0,
    "hdg": 3600,
    "LoggingTime": "2016-12-05T08:44:42.923Z"
  },
  {
    "_t": "Msg_attitude",
    "time_boot_ms": 3800,
    "roll": 0,
    "pitch": 0,
    "yaw": 0.6283185307179586,
    "rollspeed": 0,
    "pitchspeed": 0,
    "yawspeed": 0,
    "LoggingTime": "2016-12-05T08:44:42.923Z"
  },
  {
    "_t": "Msg_mount_status",
    "target_system": 0,
    "target_component": 0,
    "pointing_a": 0,
    "pointing_b": 0,
    "pointing_c": 4500,
    "LoggingTime": "2016-12-05T08:44:43.023Z"
  },
  {
    "_t": "Msg_attitude",
    "time_boot_ms": 3900,
    "roll": 0,
    "pitch": 0,
    "yaw": 0.7853981633974483,
    "rollspeed": 0,
    "pitchspeed": 0,
    "yawspeed": 0,
    "LoggingTime": "2016-12-05T08:44:43.023Z"
  },
  {
    "_t": "Msg_gps_raw_int",
    "time_usec": 1480927483023,
    "fix_type": 5,
    "lat": 373223900,
    "lon": 1267982923,
    "alt": 17099,
    "eph": 9999,
    "epv": 65535,
    "vel": 200,
    "cog": 4500,
    "satellites_visible": 12,
    "LoggingTime": "2016-12-05T08:44:43.023Z"
  },
  {
    "_t": "Msg_global_position_int",
    "time_boot_ms": 3900,
    "lat": 373223900,
    "lon": 1267982923,
    "alt": 17099,
    "relative_alt": 17099,
    "vx": 200,
    "vy": 0,
    "vz": 0,
    "hdg": 4500,
    "LoggingTime": "2016-12-05T08:44:43.023Z"
  },
  {
    "_t": "Msg_mount_status",
    "target_system": 0,
    "target_component": 0,
    "pointing_a": 0,
    "pointing_b": 0,
    "pointing_c": 3600,
    "LoggingTime": "2016-12-05T08:44:43.123Z"
  },
  {
    "_t": "Msg_heartbeat",
    "type": 14,
    "autopilot": 3,
    "base_mode": 209,
    "custom_mode": 0,
    "system_status": 3,
    "mavlink_version": 3,
    "LoggingTime": "2016-12-05T08:44:43.123Z"
  },
  {
    "_t": "Msg_gps_raw_int",
    "time_usec": 1480927483123,
    "fix_type": 5,
    "lat": 373223913,
    "lon": 1267982938,
    "alt": 16999,
    "eph": 9999,
    "epv": 65535,
    "vel": 200,
    "cog": 3600,
    "satellites_visible": 12,
    "LoggingTime": "2016-12-05T08:44:43.123Z"
  },
  {
    "_t": "Msg_global_position_int",
    "time_boot_ms": 4000,
    "lat": 373223913,
    "lon": 1267982938,
    "alt": 16999,
    "relative_alt": 16999,
    "vx": 200,
    "vy": 0,
    "vz": 0,
    "hdg": 3600,
    "LoggingTime": "2016-12-05T08:44:43.123Z"
  },
  {
    "_t": "Msg_attitude",
    "time_boot_ms": 4000,
    "roll": 0,
    "pitch": 0,
    "yaw": 0.6283185307179586,
    "rollspeed": 0,
    "pitchspeed": 0,
    "yawspeed": 0,
    "LoggingTime": "2016-12-05T08:44:43.123Z"
  },
  {
    "_t": "Msg_attitude",
    "time_boot_ms": 4100,
    "roll": 0,
    "pitch": 0,
    "yaw": 0.7853981633974483,
    "rollspeed": 0,
    "pitchspeed": 0,
    "yawspeed": 0,
    "LoggingTime": "2016-12-05T08:44:43.223Z"
  },
  {
    "_t": "Msg_gps_raw_int",
    "time_usec": 1480927483223,
    "fix_type": 5,
    "lat": 373223926,
    "lon": 1267982953,
    "alt": 16899,
    "eph": 9999,
    "epv": 65535,
    "vel": 200,
    "cog": 4500,
    "satellites_visible": 12,
    "LoggingTime": "2016-12-05T08:44:43.223Z"
  },
  {
    "_t": "Msg_mount_status",
    "target_system": 0,
    "target_component": 0,
    "pointing_a": 0,
    "pointing_b": 0,
    "pointing_c": 4500,
    "LoggingTime": "2016-12-05T08:44:43.223Z"
  },
  {
    "_t": "Msg_global_position_int",
    "time_boot_ms": 4100,
    "lat": 373223926,
    "lon": 1267982953,
    "alt": 16899,
    "relative_alt": 16899,
    "vx": 200,
    "vy": 0,
    "vz": 0,
    "hdg": 4500,
    "LoggingTime": "2016-12-05T08:44:43.223Z"
  },
  {
    "_t": "Msg_mount_status",
    "target_system": 0,
    "target_component": 0,
    "pointing_a": 0,
    "pointing_b": 0,
    "pointing_c": 3600,
    "LoggingTime": "2016-12-05T08:44:43.323Z"
  },
  {
    "_t": "Msg_gps_raw_int",
    "time_usec": 1480927483323,
    "fix_type": 5,
    "lat": 373223940,
    "lon": 1267982968,
    "alt": 16799,
    "eph": 9999,
    "epv": 65535,
    "vel": 200,
    "cog": 3600,
    "satellites_visible": 12,
    "LoggingTime": "2016-12-05T08:44:43.323Z"
  },
  {
    "_t": "Msg_attitude",
    "time_boot_ms": 4200,
    "roll": 0,
    "pitch": 0,
    "yaw": 0.6283185307179586,
    "rollspeed": 0,
    "pitchspeed": 0,
    "yawspeed": 0,
    "LoggingTime": "2016-12-05T08:44:43.323Z"
  },
  {
    "_t": "Msg_global_position_int",
    "time_boot_ms": 4200,
    "lat": 373223940,
    "lon": 1267982968,
    "alt": 16799,
    "relative_alt": 16799,
    "vx": 200,
    "vy": 0,
    "vz": 0,
    "hdg": 3600,
    "LoggingTime": "2016-12-05T08:44:43.323Z"
  },
  {
    "_t": "Msg_attitude",
    "time_boot_ms": 4300,
    "roll": 0,
    "pitch": 0,
    "yaw": 0.7853981633974483,
    "rollspeed": 0,
    "pitchspeed": 0,
    "yawspeed": 0,
    "LoggingTime": "2016-12-05T08:44:43.423Z"
  },
  {
    "_t": "Msg_mount_status",
    "target_system": 0,
    "target_component": 0,
    "pointing_a": 0,
    "pointing_b": 0,
    "pointing_c": 4500,
    "LoggingTime": "2016-12-05T08:44:43.423Z"
  },
  {
    "_t": "Msg_global_position_int",
    "time_boot_ms": 4300,
    "lat": 373223953,
    "lon": 1267982984,
    "alt": 16699,
    "relative_alt": 16699,
    "vx": 200,
    "vy": 0,
    "vz": 0,
    "hdg": 4500,
    "LoggingTime": "2016-12-05T08:44:43.423Z"
  },
  {
    "_t": "Msg_gps_raw_int",
    "time_usec": 1480927483423,
    "fix_type": 5,
    "lat": 373223953,
    "lon": 1267982984,
    "alt": 16699,
    "eph": 9999,
    "epv": 65535,
    "vel": 200,
    "cog": 4500,
    "satellites_visible": 12,
    "LoggingTime": "2016-12-05T08:44:43.423Z"
  },
  {
    "_t": "Msg_mount_status",
    "target_system": 0,
    "target_component": 0,
    "pointing_a": 0,
    "pointing_b": 0,
    "pointing_c": 3600,
    "LoggingTime": "2016-12-05T08:44:43.523Z"
  },
  {
    "_t": "Msg_attitude",
    "time_boot_ms": 4400,
    "roll": 0,
    "pitch": 0,
    "yaw": 0.6283185307179586,
    "rollspeed": 0,
    "pitchspeed": 0,
    "yawspeed": 0,
    "LoggingTime": "2016-12-05T08:44:43.523Z"
  },
  {
    "_t": "Msg_gps_raw_int",
    "time_usec": 1480927483523,
    "fix_type": 5,
    "lat": 373223966,
    "lon": 1267982999,
    "alt": 16599,
    "eph": 9999,
    "epv": 65535,
    "vel": 200,
    "cog": 3600,
    "satellites_visible": 12,
    "LoggingTime": "2016-12-05T08:44:43.523Z"
  },
  {
    "_t": "Msg_global_position_int",
    "time_boot_ms": 4400,
    "lat": 373223966,
    "lon": 1267982999,
    "alt": 16599,
    "relative_alt": 16599,
    "vx": 200,
    "vy": 0,
    "vz": 0,
    "hdg": 3600,
    "LoggingTime": "2016-12-05T08:44:43.523Z"
  },
  {
    "_t": "Msg_attitude",
    "time_boot_ms": 4500,
    "roll": 0,
    "pitch": 0,
    "yaw": 0.7853981633974483,
    "rollspeed": 0,
    "pitchspeed": 0,
    "yawspeed": 0,
    "LoggingTime": "2016-12-05T08:44:43.623Z"
  },
  {
    "_t": "Msg_global_position_int",
    "time_boot_ms": 4500,
    "lat": 373223979,
    "lon": 1267983014,
    "alt": 16499,
    "relative_alt": 16499,
    "vx": 200,
    "vy": 0,
    "vz": 0,
    "hdg": 4500,
    "LoggingTime": "2016-12-05T08:44:43.623Z"
  },
  {
    "_t": "Msg_mount_status",
    "target_system": 0,
    "target_component": 0,
    "pointing_a": 0,
    "pointing_b": 0,
    "pointing_c": 4500,
    "LoggingTime": "2016-12-05T08:44:43.623Z"
  },
  {
    "_t": "Msg_gps_raw_int",
    "time_usec": 1480927483623,
    "fix_type": 5,
    "lat": 373223979,
    "lon": 1267983014,
    "alt": 16499,
    "eph": 9999,
    "epv": 65535,
    "vel": 200,
    "cog": 4500,
    "satellites_visible": 12,
    "LoggingTime": "2016-12-05T08:44:43.623Z"
  },
  {
    "_t": "Msg_mount_status",
    "target_system": 0,
    "target_component": 0,
    "pointing_a": 0,
    "pointing_b": 0,
    "pointing_c": 3600,
    "LoggingTime": "2016-12-05T08:44:43.723Z"
  },
  {
    "_t": "Msg_global_position_int",
    "time_boot_ms": 4600,
    "lat": 373223993,
    "lon": 1267983029,
    "alt": 16399,
    "relative_alt": 16399,
    "vx": 200,
    "vy": 0,
    "vz": 0,
    "hdg": 3600,
    "LoggingTime": "2016-12-05T08:44:43.723Z"
  },
  {
    "_t": "Msg_attitude",
    "time_boot_ms": 4600,
    "roll": 0,
    "pitch": 0,
    "yaw": 0.6283185307179586,
    "rollspeed": 0,
    "pitchspeed": 0,
    "yawspeed": 0,
    "LoggingTime": "2016-12-05T08:44:43.723Z"
  },
  {
    "_t": "Msg_gps_raw_int",
    "time_usec": 1480927483723,
    "fix_type": 5,
    "lat": 373223993,
    "lon": 1267983029,
    "alt": 16399,
    "eph": 9999,
    "epv": 65535,
    "vel": 200,
    "cog": 3600,
    "satellites_visible": 12,
    "LoggingTime": "2016-12-05T08:44:43.723Z"
  },
  {
    "_t": "Msg_gps_raw_int",
    "time_usec": 1480927483823,
    "fix_type": 5,
    "lat": 373224006,
    "lon": 1267983045,
    "alt": 16299,
    "eph": 9999,
    "epv": 65535,
    "vel": 200,
    "cog": 4500,
    "satellites_visible": 12,
    "LoggingTime": "2016-12-05T08:44:43.823Z"
  },
  {
    "_t": "Msg_mount_status",
    "target_system": 0,
    "target_component": 0,
    "pointing_a": 0,
    "pointing_b": 0,
    "pointing_c": 4500,
    "LoggingTime": "2016-12-05T08:44:43.823Z"
  },
  {
    "_t": "Msg_global_position_int",
    "time_boot_ms": 4700,
    "lat": 373224006,
    "lon": 1267983045,
    "alt": 16299,
    "relative_alt": 16299,
    "vx": 200,
    "vy": 0,
    "vz": 0,
    "hdg": 4500,
    "LoggingTime": "2016-12-05T08:44:43.823Z"
  },
  {
    "_t": "Msg_attitude",
    "time_boot_ms": 4700,
    "roll": 0,
    "pitch": 0,
    "yaw": 0.7853981633974483,
    "rollspeed": 0,
    "pitchspeed": 0,
    "yawspeed": 0,
    "LoggingTime": "2016-12-05T08:44:43.823Z"
  },
  {
    "_t": "Msg_gps_raw_int",
    "time_usec": 1480927483923,
    "fix_type": 5,
    "lat": 373224019,
    "lon": 1267983060,
    "alt": 16199,
    "eph": 9999,
    "epv": 65535,
    "vel": 200,
    "cog": 3600,
    "satellites_visible": 12,
    "LoggingTime": "2016-12-05T08:44:43.923Z"
  },
  {
    "_t": "Msg_attitude",
    "time_boot_ms": 4800,
    "roll": 0,
    "pitch": 0,
    "yaw": 0.6283185307179586,
    "rollspeed": 0,
    "pitchspeed": 0,
    "yawspeed": 0,
    "LoggingTime": "2016-12-05T08:44:43.923Z"
  },
  {
    "_t": "Msg_global_position_int",
    "time_boot_ms": 4800,
    "lat": 373224019,
    "lon": 1267983060,
    "alt": 16199,
    "relative_alt": 16199,
    "vx": 200,
    "vy": 0,
    "vz": 0,
    "hdg": 3600,
    "LoggingTime": "2016-12-05T08:44:43.923Z"
  },
  {
    "_t": "Msg_mount_status",
    "target_system": 0,
    "target_component": 0,
    "pointing_a": 0,
    "pointing_b": 0,
    "pointing_c": 3600,
    "LoggingTime": "2016-12-05T08:44:43.923Z"
  },
  {
    "_t": "Msg_gps_raw_int",
    "time_usec": 1480927484023,
    "fix_type": 5,
    "lat": 373224033,
    "lon": 1267983075,
    "alt": 16099,
    "eph": 9999,
    "epv": 65535,
    "vel": 200,
    "cog": 4500,
    "satellites_visible": 12,
    "LoggingTime": "2016-12-05T08:44:44.023Z"
  },
  {
    "_t": "Msg_attitude",
    "time_boot_ms": 4900,
    "roll": 0,
    "pitch": 0,
    "yaw": 0.7853981633974483,
    "rollspeed": 0,
    "pitchspeed": 0,
    "yawspeed": 0,
    "LoggingTime": "2016-12-05T08:44:44.023Z"
  },
  {
    "_t": "Msg_global_position_int",
    "time_boot_ms": 4900,
    "lat": 373224033,
    "lon": 1267983075,
    "alt": 16099,
    "relative_alt": 16099,
    "vx": 200,
    "vy": 0,
    "vz": 0,
    "hdg": 4500,
    "LoggingTime": "2016-12-05T08:44:44.023Z"
  },
  {
    "_t": "Msg_mount_status",
    "target_system": 0,
    "target_component": 0,
    "pointing_a": 0,
    "pointing_b": 0,
    "pointing_c": 4500,
    "LoggingTime": "2016-12-05T08:44:44.023Z"
  },
  {
    "_t": "Msg_heartbeat",
    "type": 14,
    "autopilot": 3,
    "base_mode": 209,
    "custom_mode": 0,
    "system_status": 3,
    "mavlink_version": 3,
    "LoggingTime": "2016-12-05T08:44:44.123Z"
  },
  {
    "_t": "Msg_attitude",
    "time_boot_ms": 5000,
    "roll": 0,
    "pitch": 0,
    "yaw": 0.6283185307179586,
    "rollspeed": 0,
    "pitchspeed": 0,
    "yawspeed": 0,
    "LoggingTime": "2016-12-05T08:44:44.123Z"
  },
  {
    "_t": "Msg_global_position_int",
    "time_boot_ms": 5000,
    "lat": 373224046,
    "lon": 1267983090,
    "alt": 15999,
    "relative_alt": 15999,
    "vx": 200,
    "vy": 0,
    "vz": 0,
    "hdg": 3600,
    "LoggingTime": "2016-12-05T08:44:44.123Z"
  },
  {
    "_t": "Msg_mount_status",
    "target_system": 0,
    "target_component": 0,
    "pointing_a": 0,
    "pointing_b": 0,
    "pointing_c": 3600,
    "LoggingTime": "2016-12-05T08:44:44.123Z"
  },
  {
    "_t": "Msg_gps_raw_int",
    "time_usec": 1480927484123,
    "fix_type": 5,
    "lat": 373224046,
    "lon": 1267983090,
    "alt": 15999,
    "eph": 9999,
    "epv": 65535,
    "vel": 200,
    "cog": 3600,
    "satellites_visible": 12,
    "LoggingTime": "2016-12-05T08:44:44.123Z"
  },
  {
    "_t": "Msg_gps_raw_int",
    "time_usec": 1480927484223,
    "fix_type": 5,
    "lat": 373224059,
    "lon": 1267983105,
    "alt": 15899,
    "eph": 9999,
    "epv": 65535,
    "vel": 200,
    "cog": 4500,
    "satellites_visible": 12,
    "LoggingTime": "2016-12-05T08:44:44.223Z"
  },
  {
    "_t": "Msg_attitude",
    "time_boot_ms": 5100,
    "roll": 0,
    "pitch": 0,
    "yaw": 0.7853981633974483,
    "rollspeed": 0,
    "pitchspeed": 0,
    "yawspeed": 0,
    "LoggingTime": "2016-12-05T08:44:44.223Z"
  },
  {
    "_t": "Msg_global_position_int",
    "time_boot_ms": 5100,
    "lat": 373224059,
    "lon": 1267983105,
    "alt": 15899,
    "relative_alt": 15899,
    "vx": 200,
    "vy": 0,
    "vz": 0,
    "hdg": 4500,
    "LoggingTime": "2016-12-05T08:44:44.223Z"
  },
  {
    "_t": "Msg_mount_status",
    "target_system": 0,
    "target_component": 0,
    "pointing_a": 0,
    "pointing_b": 0,
    "pointing_c": 4500,
    "LoggingTime": "2016-12-05T08:44:44.223Z"
  },
  {
    "_t": "Msg_global_position_int",
    "time_boot_ms": 5200,
    "lat": 373224073,
    "lon": 1267983121,
    "alt": 15799,
    "relative_alt": 15799,
    "vx": 200,
    "vy": 0,
    "vz": 0,
    "hdg": 3600,
    "LoggingTime": "2016-12-05T08:44:44.323Z"
  },
  {
    "_t": "Msg_mount_status",
    "target_system": 0,
    "target_component": 0,
    "pointing_a": 0,
    "pointing_b": 0,
    "pointing_c": 3600,
    "LoggingTime": "2016-12-05T08:44:44.323Z"
  },
  {
    "_t": "Msg_gps_raw_int",
    "time_usec": 1480927484323,
    "fix_type": 5,
    "lat": 373224073,
    "lon": 1267983121,
    "alt": 15799,
    "eph": 9999,
    "epv": 65535,
    "vel": 200,
    "cog": 3600,
    "satellites_visible": 12,
    "LoggingTime": "2016-12-05T08:44:44.323Z"
  },
  {
    "_t": "Msg_attitude",
    "time_boot_ms": 5200,
    "roll": 0,
    "pitch": 0,
    "yaw": 0.6283185307179586,
    "rollspeed": 0,
    "pitchspeed": 0,
    "yawspeed": 0,
    "LoggingTime": "2016-12-05T08:44:44.323Z"
  },
  {
    "_t": "Msg_global_position_int",
    "time_boot_ms": 5300,
    "lat": 373224086,
    "lon": 1267983136,
    "alt": 15699,
    "relative_alt": 15699,
    "vx": 200,
    "vy": 0,
    "vz": 0,
    "hdg": 4500,
    "LoggingTime": "2016-12-05T08:44:44.423Z"
  },
  {
    "_t": "Msg_attitude",
    "time_boot_ms": 5300,
    "roll": 0,
    "pitch": 0,
    "yaw": 0.7853981633974483,
    "rollspeed": 0,
    "pitchspeed": 0,
    "yawspeed": 0,
    "LoggingTime": "2016-12-05T08:44:44.423Z"
  },
  {
    "_t": "Msg_gps_raw_int",
    "time_usec": 1480927484423,
    "fix_type": 5,
    "lat": 373224086,
    "lon": 1267983136,
    "alt": 15699,
    "eph": 9999,
    "epv": 65535,
    "vel": 200,
    "cog": 4500,
    "satellites_visible": 12,
    "LoggingTime": "2016-12-05T08:44:44.423Z"
  },
  {
    "_t": "Msg_mount_status",
    "target_system": 0,
    "target_component": 0,
    "pointing_a": 0,
    "pointing_b": 0,
    "pointing_c": 4500,
    "LoggingTime": "2016-12-05T08:44:44.423Z"
  },
  {
    "_t": "Msg_attitude",
    "time_boot_ms": 5400,
    "roll": 0,
    "pitch": 0,
    "yaw": 0.6283185307179586,
    "rollspeed": 0,
    "pitchspeed": 0,
    "yawspeed": 0,
    "LoggingTime": "2016-12-05T08:44:44.523Z"
  },
  {
    "_t": "Msg_global_position_int",
    "time_boot_ms": 5400,
    "lat": 373224099,
    "lon": 1267983151,
    "alt": 15599,
    "relative_alt": 15599,
    "vx": 200,
    "vy": 0,
    "vz": 0,
    "hdg": 3600,
    "LoggingTime": "2016-12-05T08:44:44.523Z"
  },
  {
    "_t": "Msg_mount_status",
    "target_system": 0,
    "target_component": 0,
    "pointing_a": 0,
    "pointing_b": 0,
    "pointing_c": 3600,
    "LoggingTime": "2016-12-05T08:44:44.523Z"
  },
  {
    "_t": "Msg_gps_raw_int",
    "time_usec": 1480927484523,
    "fix_type": 5,
    "lat": 373224099,
    "lon": 1267983151,
    "alt": 15599,
    "eph": 9999,
    "epv": 65535,
    "vel": 200,
    "cog": 3600,
    "satellites_visible": 12,
    "LoggingTime": "2016-12-05T08:44:44.523Z"
  },
  {
    "_t": "Msg_attitude",
    "time_boot_ms": 5500,
    "roll": 0,
    "pitch": 0,
    "yaw": 0.7853981633974483,
    "rollspeed": 0,
    "pitchspeed": 0,
    "yawspeed": 0,
    "LoggingTime": "2016-12-05T08:44:44.623Z"
  },
  {
    "_t": "Msg_global_position_int",
    "time_boot_ms": 5500,
    "lat": 373224113,
    "lon": 1267983166,
    "alt": 15499,
    "relative_alt": 15499,
    "vx": 200,
    "vy": 0,
    "vz": 0,
    "hdg": 4500,
    "LoggingTime": "2016-12-05T08:44:44.623Z"
  },
  {
    "_t": "Msg_mount_status",
    "target_system": 0,
    "target_component": 0,
    "pointing_a": 0,
    "pointing_b": 0,
    "pointing_c": 4500,
    "LoggingTime": "2016-12-05T08:44:44.623Z"
  },
  {
    "_t": "Msg_gps_raw_int",
    "time_usec": 1480927484623,
    "fix_type": 5,
    "lat": 373224113,
    "lon": 1267983166,
    "alt": 15499,
    "eph": 9999,
    "epv": 65535,
    "vel": 200,
    "cog": 4500,
    "satellites_visible": 12,
    "LoggingTime": "2016-12-05T08:44:44.623Z"
  },
  {
    "_t": "Msg_gps_raw_int",
    "time_usec": 1480927484723,
    "fix_type": 5,
    "lat": 373224126,
    "lon": 1267983181,
    "alt": 15399,
    "eph": 9999,
    "epv": 65535,
    "vel": 200,
    "cog": 3600,
    "satellites_visible": 12,
    "LoggingTime": "2016-12-05T08:44:44.723Z"
  },
  {
    "_t": "Msg_mount_status",
    "target_system": 0,
    "target_component": 0,
    "pointing_a": 0,
    "pointing_b": 0,
    "pointing_c": 3600,
    "LoggingTime": "2016-12-05T08:44:44.723Z"
  },
  {
    "_t": "Msg_global_position_int",
    "time_boot_ms": 5600,
    "lat": 373224126,
    "lon": 1267983181,
    "alt": 15399,
    "relative_alt": 15399,
    "vx": 200,
    "vy": 0,
    "vz": 0,
    "hdg": 3600,
    "LoggingTime": "2016-12-05T08:44:44.723Z"
  },
  {
    "_t": "Msg_attitude",
    "time_boot_ms": 5600,
    "roll": 0,
    "pitch": 0,
    "yaw": 0.6283185307179586,
    "rollspeed": 0,
    "pitchspeed": 0,
    "yawspeed": 0,
    "LoggingTime": "2016-12-05T08:44:44.723Z"
  },
  {
    "_t": "Msg_gps_raw_int",
    "time_usec": 1480927484823,
    "fix_type": 5,
    "lat": 373224139,
    "lon": 1267983197,
    "alt": 15299,
    "eph": 9999,
    "epv": 65535,
    "vel": 200,
    "cog": 4500,
    "satellites_visible": 12,
    "LoggingTime": "2016-12-05T08:44:44.823Z"
  },
  {
    "_t": "Msg_attitude",
    "time_boot_ms": 5700,
    "roll": 0,
    "pitch": 0,
    "yaw": 0.7853981633974483,
    "rollspeed": 0,
    "pitchspeed": 0,
    "yawspeed": 0,
    "LoggingTime": "2016-12-05T08:44:44.823Z"
  },
  {
    "_t": "Msg_global_position_int",
    "time_boot_ms": 5700,
    "lat": 373224139,
    "lon": 1267983197,
    "alt": 15299,
    "relative_alt": 15299,
    "vx": 200,
    "vy": 0,
    "vz": 0,
    "hdg": 4500,
    "LoggingTime": "2016-12-05T08:44:44.823Z"
  },
  {
    "_t": "Msg_mount_status",
    "target_system": 0,
    "target_component": 0,
    "pointing_a": 0,
    "pointing_b": 0,
    "pointing_c": 4500,
    "LoggingTime": "2016-12-05T08:44:44.823Z"
  },
  {
    "_t": "Msg_global_position_int",
    "time_boot_ms": 5800,
    "lat": 373224152,
    "lon": 1267983212,
    "alt": 15199,
